{
    "items": [
              {
              "title": "Chandler Fab",
              "latitude": 33.3265033,
              "longitude": -111.8626689,
              "iconURL": "fsl-map-icon.png",
              "subtitle": "1300 N Alma School Rd Chandler, AZ 85224"
              },
              {
              "title": "Tempe",
              "latitude": 33.3511049,
              "longitude": -111.898631,
              "iconURL": "fsl-map-icon.png",
              "subtitle": "Freescale Semiconductor Inc 2100 East Elliot Road"
              },
              {
              "title": "Oak Hill",
              "latitude": 30.239297,
              "longitude": -97.867112,
              "iconURL": "fsl-map-icon.png",
              "subtitle": "6501 West William Cannon"
              },
              {
              "title": "ATMC",
              "latitude": 30.2736835,
              "longitude": -97.6641424,
              "iconURL": "fsl-map-icon.png",
              "subtitle": "3501 Ed Bluestein Blvd."
              },
              {
              "title": "San Jose",
              "latitude": 37.3901035,
              "longitude": -121.9248617,
              "iconURL": "fsl-map-icon.png",
              "subtitle": "2680 Zanker Rd #200, San Jose, CA 95134"
              },
              {
              "title": "Chicago Sales",
              "latitude": 42.0644687,
              "longitude": -88.1488836,
              "iconURL": "fsl-map-icon.png",
              "subtitle": "2800 W Higgins Rd #600 Hoffman Estates, Il 60169"
              },
              {
              "title": "Freescale Building",
              "latitude": 45.6195987,
              "longitude": -122.4552222,
              "iconURL": "fsl-map-icon.png",
              "subtitle": "5509 Northwest Parker Street, Camas, WA 98607, USA"
              },
              {
              "title": "Freescale Building",
              "latitude": 46.022416,
              "longitude": -122.8028061,
              "iconURL": "fsl-map-icon.png",
              "subtitle": "Kalama, WA 98625, USA"
              },
              {
              "title": "Freescale Building",
              "latitude": 44.4841267,
              "longitude": -73.11167619999999,
              "iconURL": "fsl-map-icon.png",
              "subtitle": "1000 River Street, Essex Junction, VT 05452, USA"
              },
              {
              "title": "Freescale Building",
              "latitude": 44.473824,
              "longitude": -73.197851,
              "iconURL": "fsl-map-icon.png",
              "subtitle": "Robinson Parkway, Burlington, VT 05401, USA"
              },
              {
              "title": "Freescale Building",
              "latitude": 30.2718739,
              "longitude": -97.66673060000001,
              "iconURL": "fsl-map-icon.png",
              "subtitle": "3501 Ed Bluestein Boulevard, Austin, TX 78721, USA"
              },
              {
              "title": "Freescale Building",
              "latitude": 30.4594877,
              "longitude": -97.75042069999999,
              "iconURL": "fsl-map-icon.png",
              "subtitle": "7700 West Parmer Lane, Austin, TX 78729, USA"
              },
              {
              "title": "Freescale Building",
              "latitude": 32.768139,
              "longitude": -96.793463,
              "iconURL": "fsl-map-icon.png",
              "subtitle": "1000 Belleview Street, Dallas, TX 75215, USA"
              },
              {
              "title": "Freescale Building",
              "latitude": 32.9840938,
              "longitude": -96.7022284,
              "iconURL": "fsl-map-icon.png",
              "subtitle": "1300 East Lookout Drive, Richardson, TX 75082, USA"
              },
              {
              "title": "Freescale Building",
              "latitude": 29.73872,
              "longitude": -98.22295799999999,
              "iconURL": "fsl-map-icon.png",
              "subtitle": "San Antonio, TX, USA"
              },
              {
              "title": "Freescale Building",
              "latitude": -22.8506105,
              "longitude": -47.1490115,
              "iconURL": "fsl-map-icon.png",
              "subtitle": "Rua James Clerk Maxwel - Techno Park, Campinas - SP, Brazil"
              },
              {
              "title": "Freescale Building",
              "latitude": 1.4513879,
              "longitude": 103.798724,
              "iconURL": "fsl-map-icon.png",
              "subtitle": "60 Woodlands Ind Park E7, Singapore 757830"
              },
              {
              "title": "Freescale Building",
              "latitude": 3.1144392,
              "longitude": 101.6023841,
              "iconURL": "fsl-map-icon.png",
              "subtitle": "2, Jalan SS 25/8, Taman Mayang, 47301 Petaling Jaya, Selangor, Malaysia"
              },
              {
              "title": "Freescale Building",
              "latitude": 3.1139278,
              "longitude": 101.5261739,
              "iconURL": "fsl-map-icon.png",
              "subtitle": "Smart Reader Kids, 15, Jalan Pelapik B U8/B, Bukit Jelutong, 40150 Shah Alam, Selangor, Malaysia"
              },
              {
              "title": "Freescale Building",
              "latitude": 3.1106673,
              "longitude": 101.5984673,
              "iconURL": "fsl-map-icon.png",
              "subtitle": "Persatuan Penganut Agama Buddha Chen Foh Chong Petaling Jaya, Selangor., Jalan SS 4d/14, Ss 4, 47300 Petaling Jaya, Selangor, Malaysia"
              },
              {
              "title": "Freescale Building",
              "latitude": 4.607402,
              "longitude": 101.0956369,
              "iconURL": "fsl-map-icon.png",
              "subtitle": "Hotel Fair Park, Taman Fair Park, 31400 Ipoh, Perak, Malaysia"
              },
              {
              "title": "Freescale Building",
              "latitude": 45.2767932,
              "longitude": -75.3071607,
              "iconURL": "fsl-map-icon.png",
              "subtitle": "Route 300, Embrun, ON K0A, Canada"
              },
              {
              "title": "Freescale Building",
              "latitude": 43.9622318,
              "longitude": -78.325931,
              "iconURL": "fsl-map-icon.png",
              "subtitle": "210 Toronto Road, Port Hope, ON L1A 3V5, Canada"
              },
              {
              "title": "Freescale Building",
              "latitude": 41.5447432,
              "longitude": -73.82832139999999,
              "iconURL": "fsl-map-icon.png",
              "subtitle": "Hudson Valley Research Park, 2070 New York 52, Hopewell Junction, NY 12533, USA"
              },
              {
              "title": "Freescale Building",
              "latitude": 41.2112432,
              "longitude": -73.80050360000001,
              "iconURL": "fsl-map-icon.png",
              "subtitle": "1101 Kitchawan Road, Yorktown Heights, NY 10598, USA"
              },
              {
              "title": "Freescale Building",
              "latitude": 40.867944,
              "longitude": -74.4176609,
              "iconURL": "fsl-map-icon.png",
              "subtitle": "Parsippany, Parsippany-Troy Hills, NJ, USA"
              },
              {
              "title": "Freescale Building",
              "latitude": 35.8966098,
              "longitude": -78.6520379,
              "iconURL": "fsl-map-icon.png",
              "subtitle": "8601 Six Forks Road, Raleigh, NC 27615, USA"
              },
              {
              "title": "Freescale Building",
              "latitude": 35.9438369,
              "longitude": -78.8495411,
              "iconURL": "fsl-map-icon.png",
              "subtitle": "Research Triangle Park, Durham, NC, USA"
              },
              {
              "title": "Freescale Building",
              "latitude": 35.915576,
              "longitude": -78.87253699999999,
              "iconURL": "fsl-map-icon.png",
              "subtitle": "3028 East Cornwallis Road, Durham, NC 27713, USA"
              },
              {
              "title": "Freescale Building",
              "latitude": 44.8552506,
              "longitude": -93.2352863,
              "iconURL": "fsl-map-icon.png",
              "subtitle": "2626 East 82nd Street, Bloomington, MN 55425, USA"
              },
              {
              "title": "Freescale Building",
              "latitude": 42.498569,
              "longitude": -83.44235599999999,
              "iconURL": "fsl-map-icon.png",
              "subtitle": "28125 Cabot Drive, Novi, MI 48377, USA"
              },
              {
              "title": "Freescale Building",
              "latitude": 45.44437,
              "longitude": 9.117661399999999,
              "iconURL": "fsl-map-icon.png",
              "subtitle": "Via Anna Maria Mozzoni, 12, 20152 Milano, Italy"
              },
              {
              "title": "Freescale Building",
              "latitude": 42.48386989999999,
              "longitude": -71.11512789999999,
              "iconURL": "fsl-map-icon.png",
              "subtitle": "300 Unicorn Park Drive, Woburn, MA 01801, USA"
              },
              {
              "title": "Freescale Building",
              "latitude": 51.2788103,
              "longitude": 0.5493534000000001,
              "iconURL": "fsl-map-icon.png",
              "subtitle": "Lodge Road, Maidstone, Maidstone, Kent ME14, UK"
              },
              {
              "title": "Freescale Building",
              "latitude": 20.6075399,
              "longitude": -103.4005362,
              "iconURL": "fsl-map-icon.png",
              "subtitle": "Periferico Sur, Jardines de Santa María, 45606 Jalisco, Mexico"
              },
              {
              "title": "Freescale Building",
              "latitude": 40.4544607,
              "longitude": -86.10834899999999,
              "iconURL": "fsl-map-icon.png",
              "subtitle": "2733 Albright Road, Kokomo, IN 46902, USA"
              },
              {
              "title": "Freescale Building",
              "latitude": 42.0941518,
              "longitude": -88.33985129999999,
              "iconURL": "fsl-map-icon.png",
              "subtitle": "2500 Northwest Parkway, Elgin, IL 60124, USA"
              },
              {
              "title": "Freescale Building",
              "latitude": 42.0644747,
              "longitude": -88.14858049999999,
              "iconURL": "fsl-map-icon.png",
              "subtitle": "2800 West Higgins Road, Hoffman Estates, IL 60169, USA"
              },
              {
              "title": "Freescale Building",
              "latitude": 41.936814,
              "longitude": -87.881462,
              "iconURL": "fsl-map-icon.png",
              "subtitle": "Northlake, IL, USA"
              },
              {
              "title": "Freescale Building",
              "latitude": 22.425119,
              "longitude": 114.211052,
              "iconURL": "fsl-map-icon.png",
              "subtitle": "7 Science Park West Avenue, Science Park, Hong Kong"
              },
              {
              "title": "Freescale Building",
              "latitude": 34.061335,
              "longitude": -84.23824999999999,
              "iconURL": "fsl-map-icon.png",
              "subtitle": "11539 Park Woods Circle, Alpharetta, GA 30005, USA"
              },
              {
              "title": "Freescale Building",
              "latitude": 19.4490047,
              "longitude": -99.1719926,
              "iconURL": "fsl-map-icon.png",
              "subtitle": "Colegio Militar, Felipe Carrillo Puerto, Popotla, 11400 Ciudad de México, D.F., Mexico"
              },
              {
              "title": "Freescale Building",
              "latitude": 37.688417,
              "longitude": -121.889862,
              "iconURL": "fsl-map-icon.png",
              "subtitle": "5667 Gibraltar Drive, Pleasanton, CA 94588, USA"
              },
              {
              "title": "Freescale Building",
              "latitude": 33.6406196,
              "longitude": -117.739336,
              "iconURL": "fsl-map-icon.png",
              "subtitle": "9 Cushing, Irvine, CA 92618, USA"
              },
              {
              "title": "Freescale Building",
              "latitude": 37.2947806,
              "longitude": -121.9874076,
              "iconURL": "fsl-map-icon.png",
              "subtitle": "200, 4855 Atherton Avenue, San Jose, CA 95130, USA"
              },
              {
              "title": "Freescale Building",
              "latitude": 51.8198969,
              "longitude": -0.8147721,
              "iconURL": "fsl-map-icon.png",
              "subtitle": "Oxford Road, Aylesbury, Buckinghamshire, UK"
              },
              {
              "title": "Freescale Building",
              "latitude": 33.4634827,
              "longitude": -111.9727698,
              "iconURL": "fsl-map-icon.png",
              "subtitle": "5005 East McDowell Road, Phoenix, AZ 85008, USA"
              },
              {
              "title": "Freescale Building",
              "latitude": 33.3511049,
              "longitude": -111.898631,
              "iconURL": "fsl-map-icon.png",
              "subtitle": "2100 East Elliot Road, Tempe, AZ 85284, USA"
              },
              {
              "title": "Freescale Building",
              "latitude": 33.3265033,
              "longitude": -111.8626689,
              "iconURL": "fsl-map-icon.png",
              "subtitle": "1300 North Alma School Road, Chandler, AZ 85224, USA"
              },
              {
              "title": "Freescale Building",
              "latitude": 33.448669,
              "longitude": -112.039618,
              "iconURL": "fsl-map-icon.png",
              "subtitle": "12 North 20th Street, Phoenix, AZ 85034, USA"
              },
              {
              "title": "Freescale Building",
              "latitude": 33.92057,
              "longitude": -111.926046,
              "iconURL": "fsl-map-icon.png",
              "subtitle": "Phoenix, AZ, USA"
              },
              {
              "title": "Freescale Building",
              "latitude": 33.4519,
              "longitude": -112.071915,
              "iconURL": "fsl-map-icon.png",
              "subtitle": "120 East Van Buren Street, Phoenix, AZ 85004, USA"
              },
              {
              "title": "Freescale Building",
              "latitude": 34.7105916,
              "longitude": -86.6727417,
              "iconURL": "fsl-map-icon.png",
              "subtitle": "6767 Old Madison Pike, Huntsville, AL 35806, USA"
              },
              {
              "title": "Freescale Building",
              "latitude": 32.8592335,
              "longitude": 130.7692244,
              "iconURL": "fsl-map-icon.png",
              "subtitle": "Japan, 〒869-1111 Kumamoto-ken, Kikuchi-gun, Kikuyō-machi, Musashigaoka, 3 Chome−15 県営武蔵ケ丘団地１５"
              },
              {
              "title": "Freescale Building",
              "latitude": 21.6451758,
              "longitude": 69.6236088,
              "iconURL": "fsl-map-icon.png",
              "subtitle": "Street Number 2, Kadia Plot, Panch Hatdi, Porbandar, Gujarat 360575, India"
              },
              {
              "title": "Freescale Building",
              "latitude": 28.618976,
              "longitude": 77.372394,
              "iconURL": "fsl-map-icon.png",
              "subtitle": "Fortis Hospital Residential Block, Dr Savyasachi Saxena, Ent Specialist,Ent Surgeon,Ent Doctor,Ent Clinic,Best,Sector 18,Noida, Block B, Industrial Area, Sector 62, Noida, Uttar Pradesh 201301, India"
              },
              {
              "title": "Freescale Building",
              "latitude": 35.2604546,
              "longitude": 137.0609248,
              "iconURL": "fsl-map-icon.png",
              "subtitle": "Nagoya, Aichi Prefecture, Japan"
              },
              {
              "title": "Freescale Building",
              "latitude": 12.897313,
              "longitude": 80.223128,
              "iconURL": "fsl-map-icon.png",
              "subtitle": "138, Sholinganallur, Chennai, Tamil Nadu 600119, India"
              },
              {
              "title": "Freescale Building",
              "latitude": 37.7773742,
              "longitude": 126.707073,
              "iconURL": "fsl-map-icon.png",
              "subtitle": "483-3 Beopheung-ri, Tanhyeon-myeon, Paju-si, Gyeonggi-do, South Korea"
              },
              {
              "title": "Freescale Building",
              "latitude": 31.3612603,
              "longitude": 115.0825728,
              "iconURL": "fsl-map-icon.png",
              "subtitle": "Wuhan, Hubei, China"
              },
              {
              "title": "Freescale Building",
              "latitude": 36.290705,
              "longitude": 120.00034,
              "iconURL": "fsl-map-icon.png",
              "subtitle": "130 Hang Zhou Lu, Jiaozhou Shi, Qingdao Shi, Shandong Sheng, China, 266300"
              },
              {
              "title": "Freescale Building",
              "latitude": 18.5219195,
              "longitude": 73.8293048,
              "iconURL": "fsl-map-icon.png",
              "subtitle": "13, Senapati Bapat Road, Sheti Mahamandal, Fergusson College Campus, Gokhalenagar, Pune, Maharashtra 411004, India"
              },
              {
              "title": "Freescale Building",
              "latitude": 36.065936,
              "longitude": 120.396452,
              "iconURL": "fsl-map-icon.png",
              "subtitle": "Hong Kong Trade Fazhanju Qingdao Office, 59 Xiang Gang Zhong Lu, DongBu ShangQuan, Shinan Qu, Qingdao Shi, Shandong Sheng, China, 266000"
              },
              {
              "title": "Freescale Building",
              "latitude": 31.9779682,
              "longitude": 120.9565348,
              "iconURL": "fsl-map-icon.png",
              "subtitle": "Chong Chuan Lu, Chongchuan Qu, Nantong Shi, Jiangsu Sheng, China"
              },
              {
              "title": "Freescale Building",
              "latitude": 25.0518004,
              "longitude": 121.5319889,
              "iconURL": "fsl-map-icon.png",
              "subtitle": "No. 100, Section 2, Nanjing East Road, Zhongshan District, Taipei City, Taiwan 104"
              },
              {
              "title": "Freescale Building",
              "latitude": 44.8457916,
              "longitude": 126.4097036,
              "iconURL": "fsl-map-icon.png",
              "subtitle": "080 Xiang Dao, Yushu Shi, Changchun Shi, Jilin Sheng, China"
              },
              {
              "title": "Freescale Building",
              "latitude": 34.993617,
              "longitude": 138.3550168,
              "iconURL": "fsl-map-icon.png",
              "subtitle": "Sendai, Aoi Ward, Shizuoka, Shizuoka Prefecture 421-1212, Japan"
              },
              {
              "title": "Freescale Building",
              "latitude": 24.1693481,
              "longitude": 120.6869515,
              "iconURL": "fsl-map-icon.png",
              "subtitle": "No. 30, Section 4, Tianjin Road, Beitun District, Taichung City, Taiwan 406"
              },
              {
              "title": "Freescale Building",
              "latitude": 38.941673,
              "longitude": 117.3505,
              "iconURL": "fsl-map-icon.png",
              "subtitle": "Tianjin Jinnan National Agriculture Technology Industry Park, 28 Jin Gang Gong Lu, Jinnan Qu, Tianjin Shi, China"
              },
              {
              "title": "Freescale Building",
              "latitude": 39.1443742,
              "longitude": 117.0217365,
              "iconURL": "fsl-map-icon.png",
              "subtitle": "Tianjin Workers' University of Economics and Technology （South Gate）, Xi Qing Dao, Xiqing Qu, Tianjin Shi, China, 300380"
              },
              {
              "title": "Freescale Building",
              "latitude": 31.217009,
              "longitude": 121.2530468,
              "iconURL": "fsl-map-icon.png",
              "subtitle": "Hua Xu Lu, Qingpu Qu, Shanghai Shi, China, 201708"
              },
              {
              "title": "Freescale Building",
              "latitude": 39.908074,
              "longitude": 116.4743227,
              "iconURL": "fsl-map-icon.png",
              "subtitle": "10 Jian Guo Lu, DaWang Lu, Chaoyang Qu, Beijing Shi, China, 100025"
              },
              {
              "title": "Freescale Building",
              "latitude": 17.448726,
              "longitude": 78.358367,
              "iconURL": "fsl-map-icon.png",
              "subtitle": "DLF Cyber City, Gachibowli, Hyderabad, Telangana 500032, India"
              },
              {
              "title": "Freescale Building",
              "latitude": 43.5679704,
              "longitude": 1.419908,
              "iconURL": "fsl-map-icon.png",
              "subtitle": "Avenue du Général Eisenhower, 31100 Toulouse, France"
              },
              {
              "title": "Freescale Building",
              "latitude": 55.748995,
              "longitude": -4.1596617,
              "iconURL": "fsl-map-icon.png",
              "subtitle": "Colvilles Road, East Kilbride, Glasgow, South Lanarkshire G75, UK"
              },
              {
              "title": "Freescale Building",
              "latitude": 24.823918,
              "longitude": 120.9928023,
              "iconURL": "fsl-map-icon.png",
              "subtitle": "Section 3, Gongdaowu Road, Hsinchu City, Taiwan 300"
              },
              {
              "title": "Freescale Building",
              "latitude": 37.544569,
              "longitude": 127.055974,
              "iconURL": "fsl-map-icon.png",
              "subtitle": "Seongsu, Seongsu-dong 1(il)-ga, Seongdong-gu, Seoul, South Korea"
              },
              {
              "title": "Freescale Building",
              "latitude": 14.4370311,
              "longitude": 121.0456279,
              "iconURL": "fsl-map-icon.png",
              "subtitle": "Multisystem Bldg., Km. 22 SLEX East Service Road, Muntinlupa, 1771 Metro Manila, Philippines"
              },
              {
              "title": "Freescale Building",
              "latitude": 49.40969,
              "longitude": 11.06552,
              "iconURL": "fsl-map-icon.png",
              "subtitle": "Donaustraße 26, 90451 Nürnberg, Germany"
              },
              {
              "title": "Freescale Building",
              "latitude": 1.439902,
              "longitude": 103.842371,
              "iconURL": "fsl-map-icon.png",
              "subtitle": "Yishun Street 23, Singapore"
              },
              {
              "title": "Freescale Building",
              "latitude": 43.5386798,
              "longitude": 1.3939466,
              "iconURL": "fsl-map-icon.png",
              "subtitle": "28 Chemin de Candie, 31120 Portet-sur-Garonne, France"
              },
              {
              "title": "Freescale Building",
              "latitude": 49.4632422,
              "longitude": 18.1292471,
              "iconURL": "fsl-map-icon.png",
              "subtitle": "1. máje 1009, 756 61 Rožnov pod Radhoštěm, Czech Republic"
              },
              {
              "title": "Freescale Building",
              "latitude": 65.04958959999999,
              "longitude": 25.5861167,
              "iconURL": "fsl-map-icon.png",
              "subtitle": "Kaapelitie 4, 90630 Oulu, Finland"
              },
              {
              "title": "Freescale Building",
              "latitude": 37.4914309,
              "longitude": 139.932457,
              "iconURL": "fsl-map-icon.png",
              "subtitle": "5 Ōtemachi, Aizuwakamatsu-shi, Fukushima-ken 965-0873, Japan"
              },
              {
              "title": "Freescale Building",
              "latitude": 50.51005490000001,
              "longitude": 30.585724,
              "iconURL": "fsl-map-icon.png",
              "subtitle": "Bozhenka Street, 15, Kyiv, Ukraine"
              },
              {
              "title": "Freescale Building",
              "latitude": 59.4050081,
              "longitude": 17.9469194,
              "iconURL": "fsl-map-icon.png",
              "subtitle": "Isafjordsgatan 35, 164 40 Kista, Sweden"
              },
              {
              "title": "Freescale Building",
              "latitude": 47.5692761,
              "longitude": 7.597307199999999,
              "iconURL": "fsl-map-icon.png",
              "subtitle": "Riehenring 175, 4058 Basel, Switzerland"
              },
              {
              "title": "Freescale Building",
              "latitude": 35.6979653,
              "longitude": 139.7001583,
              "iconURL": "fsl-map-icon.png",
              "subtitle": "Nishishinjuku, Shinjuku, Tokyo 160-0023, Japan"
              },
              {
              "title": "Freescale Building",
              "latitude": 3.160578,
              "longitude": 101.7232081,
              "iconURL": "fsl-map-icon.png",
              "subtitle": "Kuala Lumpur, Kuala Lumpur, Wilayah Persekutuan Kuala Lumpur, Malaysia"
              },
              {
              "title": "Freescale Building",
              "latitude": 22.390922,
              "longitude": 114.208875,
              "iconURL": "fsl-map-icon.png",
              "subtitle": "11 On Sum Street, Sha Tin, Hong Kong"
              },
              {
              "title": "Freescale Building",
              "latitude": 3.204971,
              "longitude": 101.6638801,
              "iconURL": "fsl-map-icon.png",
              "subtitle": "Petaling Jaya, Selangor, Malaysia"
              },
              {
              "title": "Freescale Building",
              "latitude": 41.4835378,
              "longitude": -81.8325859,
              "iconURL": "fsl-map-icon.png",
              "subtitle": "4, 19000 Lake Road, Rocky River, OH 44116, USA"
              },
              {
              "title": "Freescale Building",
              "latitude": 52.1215602,
              "longitude": 5.0528993,
              "iconURL": "fsl-map-icon.png",
              "subtitle": "Industrie-Vereniging Lage Weide, Rutherfordweg 102, 3542 CG Utrecht, Netherlands"
              },
              {
              "title": "Freescale Building",
              "latitude": 53.2008679,
              "longitude": -6.110822499999999,
              "iconURL": "fsl-map-icon.png",
              "subtitle": "1st Floor, Main Street, Bray, Co. Wicklow, Ireland"
              },
              {
              "title": "Freescale Building",
              "latitude": 60.17880030000001,
              "longitude": 24.8348338,
              "iconURL": "fsl-map-icon.png",
              "subtitle": "Keilaranta 12, 02150 Espoo, Finland"
              },
              {
              "title": "Freescale Building",
              "latitude": 44.4221659,
              "longitude": 26.0739033,
              "iconURL": "fsl-map-icon.png",
              "subtitle": "Tati Business Center, Bulevardul Tudor Vladimirescu 45, București, Romania"
              },
              {
              "title": "Freescale Building",
              "latitude": 31.371724,
              "longitude": 120.524237,
              "iconURL": "fsl-map-icon.png",
              "subtitle": "Suzhou New District Railway Station, Hu Quan Lu, Huqiu Qu, Suzhou Shi, Jiangsu Sheng, China"
              },
              {
              "title": "Freescale Building",
              "latitude": 30.5673795,
              "longitude": 104.2379201,
              "iconURL": "fsl-map-icon.png",
              "subtitle": "Shi Ji Da Dao, Longquanyi Qu, Chengdu Shi, Sichuan Sheng, China, 610100"
              },
              {
              "title": "Freescale Building",
              "latitude": 60.089675,
              "longitude": 30.559783,
              "iconURL": "fsl-map-icon.png",
              "subtitle": "Saint Petersburg, Russia"
              },
              {
              "title": "Freescale Building",
              "latitude": 22.537846,
              "longitude": 114.027225,
              "iconURL": "fsl-map-icon.png",
              "subtitle": "7006 Shen Nan Da Dao, Futian Qu, Shenzhen Shi, Guangdong Sheng, China"
              },
              {
              "title": "Freescale Building",
              "latitude": 31.211978,
              "longitude": 121.602284,
              "iconURL": "fsl-map-icon.png",
              "subtitle": "669 Guo Shou Jing Lu, Pudong Xinqu, Shanghai Shi, China, 201203"
              },
              {
              "title": "Freescale Building",
              "latitude": 60.089675,
              "longitude": 30.559783,
              "iconURL": "fsl-map-icon.png",
              "subtitle": "Saint Petersburg, Russia"
              },
              {
              "title": "Freescale Building",
              "latitude": 49.2152998,
              "longitude": 16.5579721,
              "iconURL": "fsl-map-icon.png",
              "subtitle": "Jundrovská 1035/33, 624 00 Brno-Brno-Komín, Czech Republic"
              },
              {
              "title": "Freescale Building",
              "latitude": 24.7789429,
              "longitude": 121.0252416,
              "iconURL": "fsl-map-icon.png",
              "subtitle": "Jinshan North 3rd Street, East District, Hsinchu City, Taiwan 300"
              },
              {
              "title": "Freescale Building",
              "latitude": 36.885289,
              "longitude": 120.527901,
              "iconURL": "fsl-map-icon.png",
              "subtitle": "Xinyuan Garden （South Gate）, Tian Jin Lu, Laixi Shi, Qingdao Shi, Shandong Sheng, China, 266600"
              },
              {
              "title": "Freescale Building",
              "latitude": 31.3454257,
              "longitude": 120.783936,
              "iconURL": "fsl-map-icon.png",
              "subtitle": "Feng Li Jie, Wuzhong Qu, Suzhou Shi, Jiangsu Sheng, China"
              },
              {
              "title": "Freescale Building",
              "latitude": 30.2371944,
              "longitude": -97.8672624,
              "iconURL": "fsl-map-icon.png",
              "subtitle": "6501 West William Cannon Drive, Austin, TX 78735, USA"
              },
              {
              "title": "Freescale Building",
              "latitude": 31.3947879,
              "longitude": 122.0126151,
              "iconURL": "fsl-map-icon.png",
              "subtitle": "Pudong, Shanghai, China"
              },
              {
              "title": "Freescale Building",
              "latitude": 48.7037555,
              "longitude": 9.1140601,
              "iconURL": "fsl-map-icon.png",
              "subtitle": "Böblingen, Germany"
              },
              {
              "title": "Freescale Building",
              "latitude": 40.1587365,
              "longitude": -74.64795959999999,
              "iconURL": "fsl-map-icon.png",
              "subtitle": "2 Church Street, Trenton, NJ 08620, USA"
              },
              {
              "title": "Freescale Building",
              "latitude": 50.1518053,
              "longitude": 8.386191999999999,
              "iconURL": "fsl-map-icon.png",
              "subtitle": "Wiesbaden, Germany"
              },
              {
              "title": "Freescale Building",
              "latitude": 40.2532141,
              "longitude": 118.0656116,
              "iconURL": "fsl-map-icon.png",
              "subtitle": "Tianjin, Tianjin, China"
              },
              {
              "title": "Freescale Building",
              "latitude": 22.3900921,
              "longitude": 114.2081119,
              "iconURL": "fsl-map-icon.png",
              "subtitle": "Corporation Park, 11 On Lai Street, Sha Tin, Hong Kong"
              },
              {
              "title": "Freescale Building",
              "latitude": 24.8569956,
              "longitude": 121.0335449,
              "iconURL": "fsl-map-icon.png",
              "subtitle": "Hsinchu City, Taiwan 300"
              },
              {
              "title": "Freescale Building",
              "latitude": 31.2136598,
              "longitude": 121.6107247,
              "iconURL": "fsl-map-icon.png",
              "subtitle": "Guo Shou Jing Lu, Pudong Xinqu, Shanghai Shi, China, 201203"
              },
              {
              "title": "Freescale Building",
              "latitude": 24.8569956,
              "longitude": 121.0335449,
              "iconURL": "fsl-map-icon.png",
              "subtitle": "Hsinchu City, Taiwan 300"
              },
              {
              "title": "Freescale Building",
              "latitude": 23.2458784,
              "longitude": 113.4517366,
              "iconURL": "fsl-map-icon.png",
              "subtitle": "Tianhe, Guangzhou, Guangdong, China"
              },
              {
              "title": "Freescale Building",
              "latitude": 24.7711111,
              "longitude": 120.925,
              "iconURL": "fsl-map-icon.png",
              "subtitle": "香仙山頭, Xiangshan District, Hsinchu City, Taiwan 300"
              },
              {
              "title": "Freescale Building",
              "latitude": 24.4774164,
              "longitude": 118.0820278,
              "iconURL": "fsl-map-icon.png",
              "subtitle": "International Plaza, Siming, Xiamen, Fujian, China, 361012"
              },
              {
              "title": "Freescale Building",
              "latitude": 29.8448313,
              "longitude": 106.0520116,
              "iconURL": "fsl-map-icon.png",
              "subtitle": "66 Xin Nan Jie, Tongliang Xian, Chongqing Shi, China, 402560"
              },
              {
              "title": "Freescale Building",
              "latitude": 22.4420406,
              "longitude": 114.3250708,
              "iconURL": "fsl-map-icon.png",
              "subtitle": "Zhuhai, Guangdong, China"
              },
              {
              "title": "Freescale Building",
              "latitude": 51.819883,
              "longitude": 4.6045881,
              "iconURL": "fsl-map-icon.png",
              "subtitle": "Suite, 3335 Zwijndrecht, Netherlands"
              },
              {
              "title": "Freescale Building",
              "latitude": 57.8942001,
              "longitude": 12.0137189,
              "iconURL": "fsl-map-icon.png",
              "subtitle": "Kungälv, Sweden"
              },
              {
              "title": "Freescale Building",
              "latitude": 29.8134784,
              "longitude": 121.5695806,
              "iconURL": "fsl-map-icon.png",
              "subtitle": "Shou Nan Lu, Yinzhou Qu, Ningbo Shi, Zhejiang Sheng, China, 315100"
              },
              {
              "title": "Freescale Building",
              "latitude": 40.2532141,
              "longitude": 118.0656116,
              "iconURL": "fsl-map-icon.png",
              "subtitle": "Tianjin, Tianjin, China"
              },
              {
              "title": "Freescale Building",
              "latitude": 22.352598,
              "longitude": 114.123901,
              "iconURL": "fsl-map-icon.png",
              "subtitle": "Kerry Warehouse (Kwai Chung), 4-6 Kwai Tai Road, Kwai Chung, Hong Kong"
              }
              ]
}
